[
    {
        "stop_lat": 53.910459, 
        "stop_code": 105088, 
        "stop_lon": -122.769734, 
        "parent_station": 0, 
        "stop_short_name": "Westbound 15th Ave at Carney", 
        "stop_id": 105088, 
        "stop_name": "Westbound 15th Ave at Carney", 
        "location_type": 0
    }, 
    {
        "stop_lat": 53.910464, 
        "stop_code": 105089, 
        "stop_lon": -122.765712, 
        "parent_station": 0, 
        "stop_short_name": "Westbound 15th Ave at Alward", 
        "stop_id": 105089, 
        "stop_name": "Westbound 15th Ave at Alward", 
        "location_type": 0
    }, 
    {
        "stop_lat": 53.90985, 
        "stop_code": 105090, 
        "stop_lon": -122.758781, 
        "parent_station": 0, 
        "stop_short_name": "Westbound 15th Ave at Spruce", 
        "stop_id": 105090, 
        "stop_name": "Westbound 15th Ave at Spruce", 
        "location_type": 0
    }, 
    {
        "stop_lat": 53.910322, 
        "stop_code": 105091, 
        "stop_lon": -122.756507, 
        "parent_station": 0, 
        "stop_short_name": "Westbound 15th Ave at 13th Ave", 
        "stop_id": 105091, 
        "stop_name": "Westbound 15th Ave at 13th Ave", 
        "location_type": 0
    }, 
    {
        "stop_lat": 53.911054, 
        "stop_code": 105092, 
        "stop_lon": -122.752575, 
        "parent_station": 0, 
        "stop_short_name": "Westbound Patricia at 10th Ave", 
        "stop_id": 105092, 
        "stop_name": "Westbound Patricia at 10th Ave", 
        "location_type": 0
    }, 
    {
        "stop_lat": 53.91164, 
        "stop_code": 105093, 
        "stop_lon": -122.749658, 
        "parent_station": 0, 
        "stop_short_name": "Westbound Patricia at 10th Ave", 
        "stop_id": 105093, 
        "stop_name": "Westbound Patricia at 10th Ave", 
        "location_type": 0
    }, 
    {
        "stop_lat": 53.914406, 
        "stop_code": 105094, 
        "stop_lon": -122.746341, 
        "parent_station": 0, 
        "stop_short_name": "Southbound Dominion at 6th Ave", 
        "stop_id": 105094, 
        "stop_name": "Southbound Dominion at 6th Ave", 
        "location_type": 0
    }, 
    {
        "stop_lat": 53.915948, 
        "stop_code": 105095, 
        "stop_lon": -122.745086, 
        "parent_station": 0, 
        "stop_short_name": "Southbound Dominion at 4th Ave", 
        "stop_id": 105095, 
        "stop_name": "Southbound Dominion at 4th Ave", 
        "location_type": 0
    }, 
    {
        "stop_lat": 53.917566, 
        "stop_code": 105096, 
        "stop_lon": -122.743763, 
        "parent_station": 0, 
        "stop_short_name": "Southbound Dominion at 2nd Ave", 
        "stop_id": 105096, 
        "stop_name": "Southbound Dominion at 2nd Ave", 
        "location_type": 0
    }, 
    {
        "stop_lat": 53.918764, 
        "stop_code": 105097, 
        "stop_lon": -122.743813, 
        "parent_station": 0, 
        "stop_short_name": "Eastbound 1st Ave at Quebec", 
        "stop_id": 105097, 
        "stop_name": "Eastbound 1st Ave at Quebec", 
        "location_type": 0
    }, 
    {
        "stop_lat": 53.917637, 
        "stop_code": 105098, 
        "stop_lon": -122.74917, 
        "parent_station": 0, 
        "stop_short_name": "Northbound Victoria at 3rd Ave", 
        "stop_id": 105098, 
        "stop_name": "Northbound Victoria at 3rd Ave", 
        "location_type": 0
    }, 
    {
        "stop_lat": 53.916469, 
        "stop_code": 105100, 
        "stop_lon": -122.75012, 
        "parent_station": 0, 
        "stop_short_name": "Northbound Victoria at 5th Ave", 
        "stop_id": 105100, 
        "stop_name": "Northbound Victoria at 5th Ave", 
        "location_type": 0
    }, 
    {
        "stop_lat": 53.910495, 
        "stop_code": 105113, 
        "stop_lon": -122.812458, 
        "parent_station": 0, 
        "stop_short_name": "Westbound University at Foothills", 
        "stop_id": 105113, 
        "stop_name": "Westbound University at Foothills", 
        "location_type": 0
    }, 
    {
        "stop_lat": 53.910153, 
        "stop_code": 180001, 
        "stop_lon": -122.803736, 
        "parent_station": 0, 
        "stop_short_name": "Eastbound 15th Ave at Jarvis", 
        "stop_id": 180001, 
        "stop_name": "Eastbound 15th Ave at Jarvis", 
        "location_type": 0
    }, 
    {
        "stop_lat": 53.913232, 
        "stop_code": 105002, 
        "stop_lon": -122.747274, 
        "parent_station": 0, 
        "stop_short_name": "Southbound Dominion at 7th Ave", 
        "stop_id": 105002, 
        "stop_name": "Southbound Dominion at 7th Ave", 
        "location_type": 0
    }, 
    {
        "stop_lat": 53.910473, 
        "stop_code": 105003, 
        "stop_lon": -122.787037, 
        "parent_station": 0, 
        "stop_short_name": "Westbound 15th Ave at Endako", 
        "stop_id": 105003, 
        "stop_name": "Westbound 15th Ave at Endako", 
        "location_type": 0
    }, 
    {
        "stop_lat": 53.910145, 
        "stop_code": 105004, 
        "stop_lon": -122.785976, 
        "parent_station": 0, 
        "stop_short_name": "Nicholson Exchange Bay B", 
        "stop_id": 105004, 
        "stop_name": "Nicholson Exchange Bay B", 
        "location_type": 0
    }, 
    {
        "stop_lat": 53.915363, 
        "stop_code": 105134, 
        "stop_lon": -122.751021, 
        "parent_station": 0, 
        "stop_short_name": "Northbound Victoria at 6th Ave", 
        "stop_id": 105134, 
        "stop_name": "Northbound Victoria at 6th Ave", 
        "location_type": 0
    }, 
    {
        "stop_lat": 53.913425, 
        "stop_code": 105135, 
        "stop_lon": -122.752614, 
        "parent_station": 0, 
        "stop_short_name": "Northbound Victoria at 9th Ave", 
        "stop_id": 105135, 
        "stop_name": "Northbound Victoria at 9th Ave", 
        "location_type": 0
    }, 
    {
        "stop_lat": 53.911676, 
        "stop_code": 105136, 
        "stop_lon": -122.754006, 
        "parent_station": 0, 
        "stop_short_name": "Northbound Victoria at 11th Ave", 
        "stop_id": 105136, 
        "stop_name": "Northbound Victoria at 11th Ave", 
        "location_type": 0
    }, 
    {
        "stop_lat": 53.891281, 
        "stop_code": 105017, 
        "stop_lon": -122.813641, 
        "parent_station": 0, 
        "stop_short_name": "UNBC Exchange Bay A", 
        "stop_id": 105017, 
        "stop_name": "UNBC Exchange Bay A", 
        "location_type": 0
    }, 
    {
        "stop_lat": 53.910211, 
        "stop_code": 105064, 
        "stop_lon": -122.810735, 
        "parent_station": 0, 
        "stop_short_name": "Eastbound 15th Ave at Foothills", 
        "stop_id": 105064, 
        "stop_name": "Eastbound 15th Ave at Foothills", 
        "location_type": 0
    }, 
    {
        "stop_lat": 53.910163, 
        "stop_code": 105066, 
        "stop_lon": -122.7963, 
        "parent_station": 0, 
        "stop_short_name": "Eastbound 15th Ave at Nation", 
        "stop_id": 105066, 
        "stop_name": "Eastbound 15th Ave at Nation", 
        "location_type": 0
    }, 
    {
        "stop_lat": 53.910228, 
        "stop_code": 105069, 
        "stop_lon": -122.780646, 
        "parent_station": 0, 
        "stop_short_name": "Eastbound 15th Ave at Central", 
        "stop_id": 105069, 
        "stop_name": "Eastbound 15th Ave at Central St E", 
        "location_type": 0
    }, 
    {
        "stop_lat": 53.910242, 
        "stop_code": 105070, 
        "stop_lon": -122.774821, 
        "parent_station": 0, 
        "stop_short_name": "Eastbound 15th Ave at Gillett", 
        "stop_id": 105070, 
        "stop_name": "Eastbound 15th Ave at Gillett", 
        "location_type": 0
    }, 
    {
        "stop_lat": 53.910221, 
        "stop_code": 105071, 
        "stop_lon": -122.777895, 
        "parent_station": 0, 
        "stop_short_name": "Eastbound 15th Ave at Irwin", 
        "stop_id": 105071, 
        "stop_name": "Eastbound 15th Ave at Irwin", 
        "location_type": 0
    }, 
    {
        "stop_lat": 53.910271, 
        "stop_code": 105072, 
        "stop_lon": -122.771896, 
        "parent_station": 0, 
        "stop_short_name": "Eastbound 15th Ave at Ewert", 
        "stop_id": 105072, 
        "stop_name": "Eastbound 15th Ave at Ewert", 
        "location_type": 0
    }, 
    {
        "stop_lat": 53.910241, 
        "stop_code": 105073, 
        "stop_lon": -122.7685, 
        "parent_station": 0, 
        "stop_short_name": "Eastbound 15th Ave at Burden", 
        "stop_id": 105073, 
        "stop_name": "Eastbound 15th Ave at Burden", 
        "location_type": 0
    }, 
    {
        "stop_lat": 53.909839, 
        "stop_code": 105074, 
        "stop_lon": -122.757467, 
        "parent_station": 0, 
        "stop_short_name": "Eastbound 15th Ave at Spruce", 
        "stop_id": 105074, 
        "stop_name": "Eastbound 15th Ave at Spruce", 
        "location_type": 0
    }, 
    {
        "stop_lat": 53.91023, 
        "stop_code": 105075, 
        "stop_lon": -122.766207, 
        "parent_station": 0, 
        "stop_short_name": "Eastbound 15th Ave at Alward", 
        "stop_id": 105075, 
        "stop_name": "Eastbound 15th Ave at Alward", 
        "location_type": 0
    }, 
    {
        "stop_lat": 53.910509, 
        "stop_code": 105077, 
        "stop_lon": -122.808613, 
        "parent_station": 0, 
        "stop_short_name": "Westbound 15th Ave at Tabor", 
        "stop_id": 105077, 
        "stop_name": "Westbound 15th Ave at Tabor", 
        "location_type": 0
    }, 
    {
        "stop_lat": 53.910485, 
        "stop_code": 105078, 
        "stop_lon": -122.804021, 
        "parent_station": 0, 
        "stop_short_name": "Westbound 15th Ave at Jarvis", 
        "stop_id": 105078, 
        "stop_name": "Westbound 15th Ave at Jarvis", 
        "location_type": 0
    }, 
    {
        "stop_lat": 53.910515, 
        "stop_code": 105079, 
        "stop_lon": -122.801069, 
        "parent_station": 0, 
        "stop_short_name": "Westbound 15th Ave at Drummond", 
        "stop_id": 105079, 
        "stop_name": "Westbound 15th Ave at Drummond", 
        "location_type": 0
    }, 
    {
        "stop_lat": 53.910494, 
        "stop_code": 105080, 
        "stop_lon": -122.795518, 
        "parent_station": 0, 
        "stop_short_name": "Westbound 15th Ave at Nation", 
        "stop_id": 105080, 
        "stop_name": "Westbound 15th Ave at Nation", 
        "location_type": 0
    }, 
    {
        "stop_lat": 53.910492, 
        "stop_code": 105083, 
        "stop_lon": -122.791328, 
        "parent_station": 0, 
        "stop_short_name": "Westbound 15th Ave at Ingenika", 
        "stop_id": 105083, 
        "stop_name": "Westbound 15th Ave at Ingenika", 
        "location_type": 0
    }, 
    {
        "stop_lat": 53.910496, 
        "stop_code": 105084, 
        "stop_lon": -122.783184, 
        "parent_station": 0, 
        "stop_short_name": "Westbound 15th Ave at Central", 
        "stop_id": 105084, 
        "stop_name": "Westbound 15th Ave at Central St W", 
        "location_type": 0
    }, 
    {
        "stop_lat": 53.91053, 
        "stop_code": 105085, 
        "stop_lon": -122.77921, 
        "parent_station": 0, 
        "stop_short_name": "Westbound 15th Ave at Johnson", 
        "stop_id": 105085, 
        "stop_name": "Westbound 15th Ave at Johnson", 
        "location_type": 0
    }, 
    {
        "stop_lat": 53.910465, 
        "stop_code": 105086, 
        "stop_lon": -122.775621, 
        "parent_station": 0, 
        "stop_short_name": "Westbound 15th Ave at Gillett", 
        "stop_id": 105086, 
        "stop_name": "Westbound 15th Ave at Gillett", 
        "location_type": 0
    }, 
    {
        "stop_lat": 53.91048, 
        "stop_code": 105087, 
        "stop_lon": -122.772699, 
        "parent_station": 0, 
        "stop_short_name": "Westbound 15th Ave at Ewert", 
        "stop_id": 105087, 
        "stop_name": "Westbound 15th Ave at Ewert", 
        "location_type": 0
    }
]